{
"type": "FeatureCollection",
"name": "7k",
"crs": { "type": "name", "properties": { "name": "urn:ogc:def:crs:OGC:1.3:CRS84" } },
"features": [
{ "type": "Feature", "properties": { "sequence": 5000.0, "name": "Dist", "label": "5 K", "path_l": "assets/dist_mark.png", "path_d": "assets/dist_mark.png" }, "geometry": { "type": "Point", "coordinates": [ -73.115071658634918, 7.041849653732364 ] } },
{ "type": "Feature", "properties": { "sequence": 1000.0, "name": "Dist", "label": "1 K", "path_l": "assets/dist_mark.png", "path_d": "assets/dist_mark.png" }, "geometry": { "type": "Point", "coordinates": [ -73.106075053489377, 7.045442687687983 ] } },
{ "type": "Feature", "properties": { "sequence": 4500.0, "name": "Service", "label": null, "path_l": "assets/water_mark.png", "path_d": "assets/water_mark.png" }, "geometry": { "type": "Point", "coordinates": [ -73.117900241777917, 7.038583703728617 ] } },
{ "type": "Feature", "properties": { "sequence": 4000.0, "name": "Dist", "label": "4 K", "path_l": "assets/dist_mark.png", "path_d": "assets/dist_mark.png" }, "geometry": { "type": "Point", "coordinates": [ -73.119027736115513, 7.034813863686327 ] } },
{ "type": "Feature", "properties": { "sequence": 0.0, "name": "Start", "label": "Salida", "path_l": "assets/start_mark.png", "path_d": "assets/start_mark.png" }, "geometry": { "type": "Point", "coordinates": [ -73.099426417506251, 7.050998784930207 ] } },
{ "type": "Feature", "properties": { "sequence": 3500.0, "name": "Service", "label": null, "path_l": "assets/power_mark.png", "path_d": "assets/power_mark.png" }, "geometry": { "type": "Point", "coordinates": [ -73.118018196550963, 7.03198293814956 ] } },
{ "type": "Feature", "properties": { "sequence": 7250.0, "name": "Finish", "label": "Llegada", "path_l": "assets/finish_mark.png", "path_d": "assets/finish_mark.png" }, "geometry": { "type": "Point", "coordinates": [ -73.099375055116866, 7.050896060151486 ] } },
{ "type": "Feature", "properties": { "sequence": 3000.0, "name": "Dist", "label": "3 K", "path_l": "assets/dist_mark.png", "path_d": "assets/dist_mark.png" }, "geometry": { "type": "Point", "coordinates": [ -73.119284749963668, 7.035860800939798 ] } },
{ "type": "Feature", "properties": { "sequence": 7000.0, "name": "Dist, Service", "label": "7 K", "path_l": "assets/powerdist_mark.png", "path_d": "assets/powerdist_mark.png" }, "geometry": { "type": "Point", "coordinates": [ -73.100202493547513, 7.050424975641982 ] } },
{ "type": "Feature", "properties": { "sequence": 2500.0, "name": "Service", "label": null, "path_l": "assets/water_mark.png", "path_d": "assets/water_mark.png" }, "geometry": { "type": "Point", "coordinates": [ -73.117425631131113, 7.039444574841959 ] } },
{ "type": "Feature", "properties": { "sequence": 6000.0, "name": "Dist", "label": "6 K", "path_l": "assets/dist_mark.png", "path_d": "assets/dist_mark.png" }, "geometry": { "type": "Point", "coordinates": [ -73.106904967772607, 7.044960488836003 ] } },
{ "type": "Feature", "properties": { "sequence": 2000.0, "name": "Dist", "label": "2 K", "path_l": "assets/dist_mark.png", "path_d": "assets/dist_mark.png" }, "geometry": { "type": "Point", "coordinates": [ -73.114379210927908, 7.042540105250922 ] } }
]
}
